{"type":"FeatureCollection","features":[{"type":"Feature","properties":{"marker-color":"#006989","marker-size":"large","icon":"https://www.infomobility.pr.it/wp-content/plugins/unsocials_wpackage/admin/wpack-maps/marker/bike_marker.png","myTitle":"Bike Sharing DUC","description":"Bike Sharing DUC", "subTitle": "BikeSharing", "visible":false},"geometry":{"type":"Point","coordinates":[10.332155605438235,44.80743563277137]}},{"type":"Feature","properties":{"marker-color":"#006989","marker-size":"large","icon":"https://www.infomobility.pr.it/wp-content/plugins/unsocials_wpackage/admin/wpack-maps/marker/bike_marker.png","myTitle":"Bike Sharing Ospedale Maggiore","description":"Bike Sharing Ospedale Maggiore", "subTitle": "BikeSharing", "visible":false},"geometry":{"type":"Point","coordinates":[10.306342025878848,44.801992876847855]}},{"type":"Feature","properties":{"marker-color":"#006989","marker-size":"large","icon":"https://www.infomobility.pr.it/wp-content/plugins/unsocials_wpackage/admin/wpack-maps/marker/bike_marker.png","myTitle":"Bike Sharing Traversetolo","description":"Bike Sharing Traversetolo", "subTitle": "BikeSharing", "visible":false},"geometry":{"type":"Point","coordinates":[10.344450851562442,44.7816179489365]}},{"type":"Feature","properties":{"marker-color":"#006989","marker-size":"large","icon":"https://www.infomobility.pr.it/wp-content/plugins/unsocials_wpackage/admin/wpack-maps/marker/bike_marker.png","myTitle":"Bike Sharing Campus Chimica","description":"Bike Sharing Campus Chimica", "subTitle": "BikeSharing", "visible":false},"geometry":{"type":"Point","coordinates":[10.31453885662842,44.76637011910507]}},{"type":"Feature","properties":{"marker-color":"#006989","marker-size":"large","icon":"https://www.infomobility.pr.it/wp-content/plugins/unsocials_wpackage/admin/wpack-maps/marker/bike_marker.png","myTitle":"Bike Sharing Stazione FF.SS.","description":"Bike Sharing Stazione FF.SS.", "subTitle": "BikeSharing", "visible":false},"geometry":{"type":"Point","coordinates":[10.327896257522585,44.809787657882964]}},{"type":"Feature","properties":{"marker-color":"#006989","marker-size":"large","icon":"https://www.infomobility.pr.it/wp-content/plugins/unsocials_wpackage/admin/wpack-maps/marker/bike_marker.png","myTitle":"Bike Sharing Ponte di Mezzo","description":"Bike Sharing Ponte di Mezzo", "subTitle": "BikeSharing", "visible":false},"geometry":{"type":"Point","coordinates":[10.324366470458987,44.802069002849144]}},{"type":"Feature","properties":{"marker-color":"#006989","marker-size":"large","icon":"https://www.infomobility.pr.it/wp-content/plugins/unsocials_wpackage/admin/wpack-maps/marker/bike_marker.png","myTitle":"Bike Sharing Santa Croce","description":"Bike Sharing Santa Croce", "subTitle": "BikeSharing", "visible":false},"geometry":{"type":"Point","coordinates":[10.314463754775943,44.803964507891315]}},{"type":"Feature","properties":{"marker-color":"#006989","marker-size":"large","icon":"https://www.infomobility.pr.it/wp-content/plugins/unsocials_wpackage/admin/wpack-maps/marker/bike_marker.png","myTitle":"Bike Sharing Bixio","description":"Bike Sharing Bixio", "subTitle": "BikeSharing", "visible":false},"geometry":{"type":"Point","coordinates":[10.317913075569155,44.79627172043673]}},{"type":"Feature","properties":{"marker-color":"#006989","marker-size":"large","icon":"https://www.infomobility.pr.it/wp-content/plugins/unsocials_wpackage/admin/wpack-maps/marker/bike_marker.png","myTitle":"Bike Sharing Farini","description":"Bike Sharing Farini", "subTitle": "BikeSharing", "visible":false},"geometry":{"type":"Point","coordinates":[10.327574392440798,44.795270554913344]}},{"type":"Feature","properties":{"marker-color":"#006989","marker-size":"large","icon":"https://www.infomobility.pr.it/wp-content/plugins/unsocials_wpackage/admin/wpack-maps/marker/bike_marker.png","myTitle":"Bike Sharing Barilla Center","description":"Bike Sharing Barilla Center", "subTitle": "BikeSharing", "visible":false},"geometry":{"type":"Point","coordinates":[10.340695758941653,44.7984452937834]}},{"type":"Feature","properties":{"marker-color":"#006989","marker-size":"large","icon":"https://www.infomobility.pr.it/wp-content/plugins/unsocials_wpackage/admin/wpack-maps/marker/bike_marker.png","myTitle":"Bike Sharing DUS","description":"Bike Sharing DUS", "subTitle": "BikeSharing", "visible":false},"geometry":{"type":"Point","coordinates":[10.334371110084536,44.80648794506413]}},{"type":"Feature","properties":{"marker-color":"#006989","marker-size":"large","icon":"https://www.infomobility.pr.it/wp-content/plugins/unsocials_wpackage/admin/wpack-maps/marker/bike_marker.png","myTitle":"Bike Sharing Barezzi","description":"Bike Sharing Barezzi", "subTitle": "BikeSharing", "visible":false},"geometry":{"type":"Point","coordinates":[10.327099641445102,44.802834063586864]}},{"type":"Feature","properties":{"marker-color":"#006989","marker-size":"large","icon":"https://www.infomobility.pr.it/wp-content/plugins/unsocials_wpackage/admin/wpack-maps/marker/bike_marker.png","myTitle":"Bike Sharing Borgo XX Marzo","description":"Bike Sharing Borgo XX Marzo", "subTitle": "BikeSharing", "visible":false},"geometry":{"type":"Point","coordinates":[10.33050872910309,44.802807419849316]}},{"type":"Feature","properties":{"marker-color":"#006989","marker-size":"large","icon":"https://www.infomobility.pr.it/wp-content/plugins/unsocials_wpackage/admin/wpack-maps/marker/bike_marker.png","myTitle":"Bike Sharing Garibaldi","description":"Bike Sharing Garibaldi", "subTitle": "BikeSharing", "visible":false},"geometry":{"type":"Point","coordinates":[10.32753684151459,44.80122019225087]}},{"type":"Feature","properties":{"marker-color":"#006989","marker-size":"large","icon":"https://www.infomobility.pr.it/wp-content/plugins/unsocials_wpackage/admin/wpack-maps/marker/bike_marker.png","myTitle":"Bike Sharing Repubblica","description":"Bike Sharing Repubblica", "subTitle": "BikeSharing", "visible":false},"geometry":{"type":"Point","coordinates":[10.32877602207947,44.80117070963343]}},{"type":"Feature","properties":{"marker-color":"#006989","marker-size":"large","icon":"https://www.infomobility.pr.it/wp-content/plugins/unsocials_wpackage/admin/wpack-maps/marker/bike_marker.png","myTitle":"Bike Sharing Park Toschi","description":"Bike Sharing Park Toschi", "subTitle": "BikeSharing", "visible":false},"geometry":{"type":"Point","coordinates":[10.32589894973762,44.80630105144444]}},{"type":"Feature","properties":{"marker-color":"#006989","marker-size":"large","icon":"https://www.infomobility.pr.it/wp-content/plugins/unsocials_wpackage/admin/wpack-maps/marker/bike_marker.png","myTitle":"Bike Sharing P.le Rondani","description":"Bike Sharing P.le Rondani", "subTitle": "BikeSharing", "visible":false},"geometry":{"type":"Point","coordinates":[10.3221006,44.7985326]}},{"type":"Feature","properties":{"marker-color":"#006989","marker-size":"large","icon":"https://www.infomobility.pr.it/wp-content/plugins/unsocials_wpackage/admin/wpack-maps/marker/bike_marker.png","myTitle":"Bike Sharing Via Emilia Ovest (Crocetta)","description":"Bike Sharing Via Emilia Ovest (Crocetta)", "subTitle": "BikeSharing", "visible":false},"geometry":{"type":"Point","coordinates":[10.29542735146481,44.80800189345231]}},{"type":"Feature","properties":{"marker-color":"#006989","marker-size":"large","icon":"https://www.infomobility.pr.it/wp-content/plugins/unsocials_wpackage/admin/wpack-maps/marker/bike_marker.png","myTitle":"Bike Sharing P.le Boito","description":"Bike Sharing P.le Boito", "subTitle": "BikeSharing", "visible":false},"geometry":{"type":"Point","coordinates":[10.32532451349175,44.79978338397052]}},{"type":"Feature","properties":{"marker-color":"#006989","marker-size":"large","icon":"https://www.infomobility.pr.it/wp-content/plugins/unsocials_wpackage/admin/wpack-maps/marker/bike_marker.png","myTitle":"Bike Sharing EFSA","description":"Bike Sharing EFSA", "subTitle": "BikeSharing", "visible":false},"geometry":{"type":"Point","coordinates":[10.320673634176615,44.80905133167043]}},{"type":"Feature","properties":{"marker-color":"#006989","marker-size":"large","icon":"https://www.infomobility.pr.it/wp-content/plugins/unsocials_wpackage/admin/wpack-maps/marker/bike_marker.png","myTitle":"Bike Sharing Kennedy","description":"Bike Sharing Kennedy", "subTitle": "BikeSharing", "visible":false},"geometry":{"type":"Point","coordinates":[10.31847657990113,44.804857075547595]}},{"type":"Feature","properties":{"marker-color":"#006989","marker-size":"large","icon":"https://www.infomobility.pr.it/wp-content/plugins/unsocials_wpackage/admin/wpack-maps/marker/bike_marker.png","myTitle":"Bike Sharing Cittadella","description":"Bike Sharing Cittadella", "subTitle": "BikeSharing", "visible":false},"geometry":{"type":"Point","coordinates":[10.330868385549934,44.794138063961704]}},{"type":"Feature","properties":{"marker-color":"#006989","marker-size":"large","icon":"https://www.infomobility.pr.it/wp-content/plugins/unsocials_wpackage/admin/wpack-maps/marker/bike_marker.png","myTitle":"Bike Sharing Vittoria","description":"Bike Sharing Vittoria", "subTitle": "BikeSharing", "visible":false},"geometry":{"type":"Point","coordinates":[10.313804171797187,44.800556006846236]}},{"type":"Feature","properties":{"marker-color":"#006989","marker-size":"large","icon":"https://www.infomobility.pr.it/wp-content/plugins/unsocials_wpackage/admin/wpack-maps/marker/bike_marker.png","myTitle":"Bike Sharing Park Campus","description":"Bike Sharing Park Campus", "subTitle": "BikeSharing", "visible":false},"geometry":{"type":"Point","coordinates":[10.321030042883308,44.76679861800096]}},{"type":"Feature","properties":{"marker-color":"#006989","marker-size":"large","icon":"https://www.infomobility.pr.it/wp-content/plugins/unsocials_wpackage/admin/wpack-maps/marker/bike_marker.png","myTitle":"Bike Sharing Ospedale Maggiore","description":"Bike Sharing Ospedale Maggiore", "subTitle": "BikeSharing", "visible":false},"geometry":{"type":"Point","coordinates":[10.309644337295595,44.805405220175764]}},{"type":"Feature","properties":{"marker-color":"#006989","marker-size":"large","icon":"https://www.infomobility.pr.it/wp-content/plugins/unsocials_wpackage/admin/wpack-maps/marker/bike_marker.png","myTitle":"Bike Sharing Palasport","description":"Bike Sharing Palasport", "subTitle": "BikeSharing", "visible":false},"geometry":{"type":"Point","coordinates":[10.3046858,44.7927903]}},{"type":"Feature","properties":{"marker-color":"#006989","marker-size":"large","icon":"https://www.infomobility.pr.it/wp-content/plugins/unsocials_wpackage/admin/wpack-maps/marker/bike_marker.png","myTitle":"Bike Sharing Stadio Tardini","description":"Bike Sharing Stadio Tardini", "subTitle": "BikeSharing", "visible":false},"geometry":{"type":"Point","coordinates":[10.336693180313318,44.79625869537355]}},{"type":"Feature","properties":{"marker-color":"#006989","marker-size":"large","icon":"https://www.infomobility.pr.it/wp-content/plugins/unsocials_wpackage/admin/wpack-maps/marker/bike_marker.png","myTitle":"Bike Sharing Cavagnari","description":"Bike Sharing Cavagnari", "subTitle": "BikeSharing", "visible":false},"geometry":{"type":"Point","coordinates":[10.297682792065757,44.786387452212416]}},{"type":"Feature","properties":{"marker-color":"#006989","marker-size":"large","icon":"https://www.infomobility.pr.it/wp-content/plugins/unsocials_wpackage/admin/wpack-maps/marker/bike_marker.png","myTitle":"Bike Sharing Lauro Grossi","description":"Bike Sharing Lauro Grossi", "subTitle": "BikeSharing", "visible":false},"geometry":{"type":"Point","coordinates":[10.321038454629843,44.7885054011181]}},{"type":"Feature","properties":{"marker-color":"#006989","marker-size":"large","icon":"https://www.infomobility.pr.it/wp-content/plugins/unsocials_wpackage/admin/wpack-maps/marker/bike_marker.png","myTitle":"Bike Sharing Auditorium Paganini","description":"Bike Sharing Auditorium Paganini", "subTitle": "BikeSharing", "visible":false},"geometry":{"type":"Point","coordinates":[10.34452480691516,44.80317844946094]}},{"type":"Feature","properties":{"marker-color":"#006989","marker-size":"large","icon":"https://www.infomobility.pr.it/wp-content/plugins/unsocials_wpackage/admin/wpack-maps/marker/bike_marker.png","myTitle":"Bike Sharing Villetta","description":"Bike Sharing Villetta", "subTitle": "BikeSharing", "visible":false},"geometry":{"type":"Point","coordinates":[10.314877744188152,44.79152642909114]}},{"type":"Feature","properties":{"marker-color":"#006989","marker-size":"large","icon":"https://www.infomobility.pr.it/wp-content/plugins/unsocials_wpackage/admin/wpack-maps/marker/bike_marker.png","myTitle":"Bike Sharing Bizzozero","description":"Bike Sharing Bizzozero", "subTitle": "BikeSharing", "visible":false},"geometry":{"type":"Point","coordinates":[10.329426705472315,44.787502256577696]}},{"type":"Feature","properties":{"marker-color":"#006989","marker-size":"large","icon":"https://www.infomobility.pr.it/wp-content/plugins/unsocials_wpackage/admin/wpack-maps/marker/bike_marker.png","myTitle":"Bike Sharing Ostello Gioventù","description":"Bike Sharing Ostello Gioventù", "subTitle": "BikeSharing", "visible":false},"geometry":{"type":"Point","coordinates":[10.335017862443692,44.822936386409424]}},{"type":"Feature","properties":{"marker-color":"#006989","marker-size":"large","icon":"https://www.infomobility.pr.it/wp-content/plugins/unsocials_wpackage/admin/wpack-maps/marker/bike_marker.png","myTitle":"Bike Sharing Volturno","description":"Bike Sharing Volturno", "subTitle": "BikeSharing", "visible":false},"geometry":{"type":"Point","coordinates":[10.293250838939905,44.79595865997816]}},{"type":"Feature","properties":{"marker-color":"#006989","marker-size":"large","icon":"https://www.infomobility.pr.it/wp-content/plugins/unsocials_wpackage/admin/wpack-maps/marker/bike_marker.png","myTitle":"Bike Sharing P.le Marsala","description":"Bike Sharing P.le Marsala", "subTitle": "BikeSharing", "visible":false},"geometry":{"type":"Point","coordinates":[10.322170416538476,44.794264653320184]}},{"type":"Feature","properties":{"marker-color":"#006989","marker-size":"large","icon":"https://www.infomobility.pr.it/wp-content/plugins/unsocials_wpackage/admin/wpack-maps/marker/bike_marker.png","myTitle":"Bike Sharing Campus Mensa","description":"Bike Sharing Campus Mensa", "subTitle": "BikeSharing", "visible":false},"geometry":{"type":"Point","coordinates":[10.310663739864587,44.765095198606026]}},{"type":"Feature","properties":{"marker-color":"#006989","marker-size":"large","icon":"https://www.infomobility.pr.it/wp-content/plugins/unsocials_wpackage/admin/wpack-maps/marker/bike_marker.png","myTitle":"Bike Sharing Campus Mensa","description":"Bike Sharing Campus Mensa", "subTitle": "BikeSharing", "visible":false},"geometry":{"type":"Point","coordinates":[10.306880148772954,44.765256355527775]}},{
      "type": "Feature",
      "properties": {
        "marker-color": "#006989",
        "marker-size": "large",
        "icon": "https://www.infomobility.pr.it/wp-content/plugins/unsocials_wpackage/admin/wpack-maps/marker/bike_marker.png",
        "myTitle": "Bike Sharing Del Taglio",
        "description": "via del Taglio - Facoltà di Veterinaria",
        "subTitle": "BikeSharing",
        "visible": false
      },
      "geometry": {
        "type": "Point",
        "coordinates": [
          10.309896469116213,
          44.81881814540119
        ]
      }
    },{
      "type": "Feature",
      "properties": {
        "marker-color": "#006989",
        "marker-size": "large",
        "icon": "https://www.infomobility.pr.it/wp-content/plugins/unsocials_wpackage/admin/wpack-maps/marker/bike_marker.png",
        "myTitle": "Bike Sharing Vasari",
        "description": "via Vasari - Dipartimento di Sanità Pubblica",
        "subTitle": "BikeSharing",
        "visible": false
      },
      "geometry": {
        "type": "Point",
        "coordinates": [
          10.319906473159792,
          44.81435828748132
        ]
      }
    },{
      "type": "Feature",
      "properties": {
        "marker-color": "#006989",
        "marker-size": "large",
        "icon": "https://www.infomobility.pr.it/wp-content/plugins/unsocials_wpackage/admin/wpack-maps/marker/bike_marker.png",
        "myTitle": "Bike Sharing Passo della Cisa",
        "description": "via Passo della Cisa / via Scarabelli Zunti",
        "subTitle": "BikeSharing",
        "visible": false
      },
      "geometry": {
        "type": "Point",
        "coordinates": [
          10.354549884796144,
          44.79646465074762
        ]
      }
    },{
      "type": "Feature",
      "properties": {
        "marker-color": "#006989",
        "marker-size": "large",
        "icon": "https://www.infomobility.pr.it/wp-content/plugins/unsocials_wpackage/admin/wpack-maps/marker/bike_marker.png",
        "myTitle": "Bike Sharing Lubiana",
        "description": "piazzale Lubiana / via Marzaroli",
        "subTitle": "BikeSharing",
        "visible": false
      },
      "geometry": {
        "type": "Point",
        "coordinates": [
          10.352602601051332,
          44.791958649754264
        ]
      }
    }]}
