{"type":"FeatureCollection","features":[{"type":"Feature","properties":{"marker-color":"#006989","marker-size":"large","icon":"https://www.infomobility.pr.it/wp-content/plugins/unsocials_wpackage/admin/wpack-maps/marker/corsie_marker.png","myTitle":"Viale Toscanini","description":"Direzione Nord - Sud - la corsia inizia da Ponte di Mezzo fino al Ponte Caprazucca. Il divieto è attivo tutti i giorni, festivi compresi, dalle 7.30 alle 19.30","subTitle":"CorsiePreferenziali","visible":false},"geometry":{"type":"Point","coordinates":[44.80213853094561,10.324197351572593]}},{"type":"Feature","properties":{"marker-color":"#006989","marker-size":"large","icon":"https://www.infomobility.pr.it/wp-content/plugins/unsocials_wpackage/admin/wpack-maps/marker/corsie_marker.png","myTitle":"Strada Garibaldi","description":"Il divieto è attivo tutti i giorni, festivi compresi, dalle 7.30 alle 19.30","subTitle":"CorsiePreferenziali","visible":false},"geometry":{"type":"Point","coordinates":[44.804733299914524,10.328292635708522]}},{"type":"Feature","properties":{"marker-color":"#006989","marker-size":"large","icon":"https://www.infomobility.pr.it/wp-content/plugins/unsocials_wpackage/admin/wpack-maps/marker/corsie_marker.png","myTitle":"Viale Mariotti","description":"Direzione Sud-Nord - la corsia inizia da Ponte di Mezzo e termina all\\'intersezione di Via Pigorini. Il divieto è attivo tutti i giorni, festivi compresi, dalle 7.30 alle 19.30","subTitle":"CorsiePreferenziali","visible":false},"geometry":{"type":"Point","coordinates":[44.802435444443354,10.324279804229718]}},{"type":"Feature","properties":{"marker-color":"#006989","marker-size":"large","icon":"https://www.infomobility.pr.it/wp-content/plugins/unsocials_wpackage/admin/wpack-maps/marker/corsie_marker.png","myTitle":"Corsia Preferenziale Bus Via D\\'Azeglio","description":"Il divieto è attivo tutti i giorni, dalle 0 - 24, festivi compresi","subTitle":"CorsiePreferenziali","visible":false},"geometry":{"type":"Point","coordinates":[44.80422719218876,10.314678847789764]}},{"type":"Feature","properties":{"marker-color":"#006989","marker-size":"large","icon":"https://www.infomobility.pr.it/wp-content/plugins/unsocials_wpackage/admin/wpack-maps/marker/corsie_marker.png","myTitle":"Corsia Preferenziale Bus Strada Bixio","description":"Il divieto è attivo tutti i giorni, dalle 0 - 24, festivi compresi","subTitle":"CorsiePreferenziali","visible":false},"geometry":{"type":"Point","coordinates":[44.796149965549205,10.31816840171814]}},{"type":"Feature","properties":{"marker-color":"#006989","marker-size":"large","icon":"https://www.infomobility.pr.it/wp-content/plugins/unsocials_wpackage/admin/wpack-maps/marker/corsie_marker.png","myTitle":"Corsia Preferenziale Bus Viale Falcone - Stazione","description":"Il divieto è attivo tutti i giorni, dalle 0 - 24, festivi compresi","subTitle":"CorsiePreferenziali","visible":false},"geometry":{"type":"Point","coordinates":[44.809829580526745,10.328241437673569]}},{"type":"Feature","properties":{"marker-color":"#006989","marker-size":"large","icon":"https://www.infomobility.pr.it/wp-content/plugins/unsocials_wpackage/admin/wpack-maps/marker/corsie_marker.png","myTitle":"Corsia Preferenziale Bus Via Zarotto","description":"Il divieto è attivo tutti i giorni, dalle 0 - 24, festivi compresi","subTitle":"CorsiePreferenziali","visible":false},"geometry":{"type":"Point","coordinates":[44.78931655595857,10.341441929340363]}},{"type":"Feature","properties":{"marker-color":"#006989","marker-size":"large","icon":"https://www.infomobility.pr.it/wp-content/plugins/unsocials_wpackage/admin/wpack-maps/marker/corsie_marker.png","myTitle":"Corsia Preferenziale Bus Via Montebello","description":"Il divieto è attivo tutti i giorni, dalle 0 - 24, festivi compresi","subTitle":"CorsiePreferenziali","visible":false},"geometry":{"type":"Point","coordinates":[44.785069536386835,10.326739400625229]}},{"type":"Feature","properties":{"marker-color":"#006989","marker-size":"large","icon":"https://www.infomobility.pr.it/wp-content/plugins/unsocials_wpackage/admin/wpack-maps/marker/corsie_marker.png","myTitle":"Corsia Preferenziale Bus Strada Repubblica","description":"Il divieto è attivo tutti i giorni, dalle 0 - 24, festivi compresi","subTitle":"CorsiePreferenziali","visible":false},"geometry":{"type":"Point","coordinates":[44.799343688430966,10.338102579116821]}},{"type":"Feature","properties":{"marker-color":"#006989","marker-size":"large","icon":"https://www.infomobility.pr.it/wp-content/plugins/unsocials_wpackage/admin/wpack-maps/marker/corsie_marker.png","myTitle":"Viale Toscanini","description":"Direzione Nord - Sud - la corsia inizia da Ponte di Mezzo fino al Ponte Caprazucca. Il divieto è attivo tutti i giorni, festivi compresi, dalle 7.30 alle 19.30","subTitle":"CorsiePreferenziali","visible":false},"geometry":{"type":"Point","coordinates":[10.324197351572593,44.80213853094561]}},{"type":"Feature","properties":{"marker-color":"#006989","marker-size":"large","icon":"https://www.infomobility.pr.it/wp-content/plugins/unsocials_wpackage/admin/wpack-maps/marker/corsie_marker.png","myTitle":"Strada Garibaldi","description":"Il divieto è attivo tutti i giorni, festivi compresi, dalle 7.30 alle 19.30","subTitle":"CorsiePreferenziali","visible":false},"geometry":{"type":"Point","coordinates":[10.328292635708522,44.804733299914524]}},{"type":"Feature","properties":{"marker-color":"#006989","marker-size":"large","icon":"https://www.infomobility.pr.it/wp-content/plugins/unsocials_wpackage/admin/wpack-maps/marker/corsie_marker.png","myTitle":"Viale Mariotti","description":"Direzione Sud-Nord - la corsia inizia da Ponte di Mezzo e termina all\\'intersezione di Via Pigorini. Il divieto è attivo tutti i giorni, festivi compresi, dalle 7.30 alle 19.30","subTitle":"CorsiePreferenziali","visible":false},"geometry":{"type":"Point","coordinates":[10.324279804229718,44.802435444443354]}},{"type":"Feature","properties":{"marker-color":"#006989","marker-size":"large","icon":"https://www.infomobility.pr.it/wp-content/plugins/unsocials_wpackage/admin/wpack-maps/marker/corsie_marker.png","myTitle":"Corsia Preferenziale Bus Via D\\'Azeglio","description":"Il divieto è attivo tutti i giorni, dalle 0 - 24, festivi compresi","subTitle":"CorsiePreferenziali","visible":false},"geometry":{"type":"Point","coordinates":[10.314678847789764,44.80422719218876]}},{"type":"Feature","properties":{"marker-color":"#006989","marker-size":"large","icon":"https://www.infomobility.pr.it/wp-content/plugins/unsocials_wpackage/admin/wpack-maps/marker/corsie_marker.png","myTitle":"Corsia Preferenziale Bus Strada Bixio","description":"Il divieto è attivo tutti i giorni, dalle 0 - 24, festivi compresi","subTitle":"CorsiePreferenziali","visible":false},"geometry":{"type":"Point","coordinates":[10.31816840171814,44.796149965549205]}},{"type":"Feature","properties":{"marker-color":"#006989","marker-size":"large","icon":"https://www.infomobility.pr.it/wp-content/plugins/unsocials_wpackage/admin/wpack-maps/marker/corsie_marker.png","myTitle":"Corsia Preferenziale Bus Viale Falcone - Stazione","description":"Il divieto è attivo tutti i giorni, dalle 0 - 24, festivi compresi","subTitle":"CorsiePreferenziali","visible":false},"geometry":{"type":"Point","coordinates":[10.328241437673569,44.809829580526745]}},{"type":"Feature","properties":{"marker-color":"#006989","marker-size":"large","icon":"https://www.infomobility.pr.it/wp-content/plugins/unsocials_wpackage/admin/wpack-maps/marker/corsie_marker.png","myTitle":"Corsia Preferenziale Bus Via Zarotto","description":"Il divieto è attivo tutti i giorni, dalle 0 - 24, festivi compresi","subTitle":"CorsiePreferenziali","visible":false},"geometry":{"type":"Point","coordinates":[10.341441929340363,44.78931655595857]}},{"type":"Feature","properties":{"marker-color":"#006989","marker-size":"large","icon":"https://www.infomobility.pr.it/wp-content/plugins/unsocials_wpackage/admin/wpack-maps/marker/corsie_marker.png","myTitle":"Corsia Preferenziale Bus Via Montebello","description":"Il divieto è attivo tutti i giorni, dalle 0 - 24, festivi compresi","subTitle":"CorsiePreferenziali","visible":false},"geometry":{"type":"Point","coordinates":[10.326739400625229,44.785069536386835]}},{"type":"Feature","properties":{"marker-color":"#006989","marker-size":"large","icon":"https://www.infomobility.pr.it/wp-content/plugins/unsocials_wpackage/admin/wpack-maps/marker/corsie_marker.png","myTitle":"Corsia Preferenziale Bus Strada Repubblica","description":"Il divieto è attivo tutti i giorni, dalle 0 - 24, festivi compresi","subTitle":"CorsiePreferenziali","visible":false},"geometry":{"type":"Point","coordinates":[10.338102579116821,44.799343688430966]}}]}